{
  "metadata": {
    "source": "Wikipedia",
    "timestamp": "2025-05-24T00:05:22.028484",
    "total_records": 20,
    "scraper_version": "1.0"
  },
  "data": [
    {
      "name": "University of Mumbai",
      "address": "many prominent hospitals in Mumbai, such as the Tata Memorial Hospital, Bombay Hospital and G",
      "latitude": 18.975,
      "longitude": 72.82583333,
      "category": "shop",
      "phone": "",
      "website": "https://en.wikipedia.org/wiki/University_of_Mumbai",
      "rating": null,
      "features": [
        "air_conditioning"
      ],
      "source": "WikipediaScraper",
      "scraped_at": "2025-05-24 00:02:15"
    },
    {
      "name": "South Mumbai",
      "address": "South Mumbai",
      "latitude": 18.96,
      "longitude": 72.82,
      "category": "restaurant",
      "phone": "",
      "website": "https://en.wikipedia.org/wiki/South_Mumbai",
      "rating": null,
      "features": [
        "air_conditioning"
      ],
      "source": "WikipediaScraper",
      "scraped_at": "2025-05-24 00:02:18"
    },
    {
      "name": "St. Thomas Cathedral, Mumbai",
      "address": "Horniman Circle, the historic centre of Mumbai",
      "latitude": 18.93166667,
      "longitude": 72.83361111,
      "category": "shop",
      "phone": "",
      "website": "https://en.wikipedia.org/wiki/St._Thomas_Cathedral,_Mumbai",
      "rating": null,
      "features": [
        "air_conditioning"
      ],
      "source": "WikipediaScraper",
      "scraped_at": "2025-05-24 00:02:22"
    },
    {
      "name": "Mumbai",
      "address": "central Mumbai and houses between 800,000 and 10 lakh (one million) people in 2",
      "latitude": 19.07611111,
      "longitude": 72.8775,
      "category": "restaurant",
      "phone": "",
      "website": "https://en.wikipedia.org/wiki/Mumbai",
      "rating": null,
      "features": [
        "wifi",
        "accessibility",
        "air_conditioning"
      ],
      "source": "WikipediaScraper",
      "scraped_at": "2025-05-24 00:02:27"
    },
    {
      "name": "Sion, Mumbai",
      "address": "the central part of Mumbai and serves as a gateway between South Mumbai and the Mumbai Suburbs",
      "latitude": 19.04,
      "longitude": 72.86,
      "category": "mall",
      "phone": "",
      "website": "https://en.wikipedia.org/wiki/Sion,_Mumbai",
      "rating": null,
      "features": [
        "air_conditioning"
      ],
      "source": "WikipediaScraper",
      "scraped_at": "2025-05-24 00:02:46"
    },
    {
      "name": "Antilia (building)",
      "address": "",
      "latitude": 18.9681,
      "longitude": 72.8095,
      "category": "shop",
      "phone": "",
      "website": "https://en.wikipedia.org/wiki/Antilia_(building)",
      "rating": null,
      "features": [
        "air_conditioning",
        "outdoor_seating"
      ],
      "source": "WikipediaScraper",
      "scraped_at": "2025-05-24 00:03:02"
    },
    {
      "name": "South Mumbai",
      "address": "South Mumbai",
      "latitude": 18.96,
      "longitude": 72.82,
      "category": "restaurant",
      "phone": "",
      "website": "https://en.wikipedia.org/wiki/South_Mumbai",
      "rating": null,
      "features": [
        "air_conditioning"
      ],
      "source": "WikipediaScraper",
      "scraped_at": "2025-05-24 00:03:12"
    },
    {
      "name": "Palais Royale, Mumbai",
      "address": "",
      "latitude": 18.9995,
      "longitude": 72.8195,
      "category": "office",
      "phone": "",
      "website": "https://en.wikipedia.org/wiki/Palais_Royale,_Mumbai",
      "rating": null,
      "features": [
        "air_conditioning"
      ],
      "source": "WikipediaScraper",
      "scraped_at": "2025-05-24 00:03:16"
    },
    {
      "name": "Victorian Gothic and Art Deco Ensembles of Mumbai",
      "address": "",
      "latitude": 18.92944444,
      "longitude": 72.83,
      "category": "office",
      "phone": "",
      "website": "https://en.wikipedia.org/wiki/Victorian_Gothic_and_Art_Deco_Ensembles_of_Mumbai",
      "rating": null,
      "features": [
        "air_conditioning"
      ],
      "source": "WikipediaScraper",
      "scraped_at": "2025-05-24 00:03:23"
    },
    {
      "name": "Chor Bazaar, Mumbai",
      "address": "Mutton street, near Bhendi Bazaar in Grant Road, South Mumbai",
      "latitude": 18.960321,
      "longitude": 72.827176,
      "category": "shop",
      "phone": "",
      "website": "https://en.wikipedia.org/wiki/Chor_Bazaar,_Mumbai",
      "rating": null,
      "features": [
        "air_conditioning"
      ],
      "source": "WikipediaScraper",
      "scraped_at": "2025-05-24 00:03:40"
    },
    {
      "name": "Navi Mumbai",
      "address": "",
      "latitude": 19.02,
      "longitude": 73.02,
      "category": "restaurant",
      "phone": "",
      "website": "https://en.wikipedia.org/wiki/Navi_Mumbai",
      "rating": null,
      "features": [
        "parking",
        "air_conditioning"
      ],
      "source": "WikipediaScraper",
      "scraped_at": "2025-05-24 00:03:48"
    },
    {
      "name": "Hiranandani Gardens, Mumbai",
      "address": "",
      "latitude": 19.118986,
      "longitude": 72.911767,
      "category": "restaurant",
      "phone": "",
      "website": "https://en.wikipedia.org/wiki/Hiranandani_Gardens,_Mumbai",
      "rating": null,
      "features": [
        "air_conditioning"
      ],
      "source": "WikipediaScraper",
      "scraped_at": "2025-05-24 00:03:52"
    },
    {
      "name": "Dadar",
      "address": "",
      "latitude": 19.021,
      "longitude": 72.841,
      "category": "restaurant",
      "phone": "",
      "website": "https://en.wikipedia.org/wiki/Dadar",
      "rating": null,
      "features": [
        "air_conditioning"
      ],
      "source": "WikipediaScraper",
      "scraped_at": "2025-05-24 00:04:01"
    },
    {
      "name": "Masque (restaurant)",
      "address": "",
      "latitude": 18.98982,
      "longitude": 72.82562,
      "category": "restaurant",
      "phone": "",
      "website": "https://en.wikipedia.org/wiki/Masque_(restaurant)",
      "rating": null,
      "features": [
        "air_conditioning"
      ],
      "source": "WikipediaScraper",
      "scraped_at": "2025-05-24 00:04:12"
    },
    {
      "name": "Bademiya",
      "address": "",
      "latitude": 18.921936,
      "longitude": 72.834573,
      "category": "restaurant",
      "phone": "",
      "website": "https://en.wikipedia.org/wiki/Bademiya",
      "rating": null,
      "features": [
        "air_conditioning"
      ],
      "source": "WikipediaScraper",
      "scraped_at": "2025-05-24 00:04:16"
    },
    {
      "name": "Leopold Cafe",
      "address": "",
      "latitude": 18.9227,
      "longitude": 72.8316,
      "category": "restaurant",
      "phone": "",
      "website": "https://en.wikipedia.org/wiki/Leopold_Cafe",
      "rating": null,
      "features": [
        "air_conditioning"
      ],
      "source": "WikipediaScraper",
      "scraped_at": "2025-05-24 00:04:20"
    },
    {
      "name": "2008 Mumbai attacks",
      "address": "",
      "latitude": 18.92194444,
      "longitude": 72.83333333,
      "category": "restaurant",
      "phone": "",
      "website": "https://en.wikipedia.org/wiki/2008_Mumbai_attacks",
      "rating": null,
      "features": [
        "wifi",
        "air_conditioning"
      ],
      "source": "WikipediaScraper",
      "scraped_at": "2025-05-24 00:04:33"
    },
    {
      "name": "Dishoom (restaurant)",
      "address": "",
      "latitude": 51.5124,
      "longitude": -0.1269,
      "category": "restaurant",
      "phone": "",
      "website": "https://en.wikipedia.org/wiki/Dishoom_(restaurant)",
      "rating": null,
      "features": [
        "air_conditioning"
      ],
      "source": "WikipediaScraper",
      "scraped_at": "2025-05-24 00:04:37"
    },
    {
      "name": "Mumbai",
      "address": "central Mumbai and houses between 800,000 and 10 lakh (one million) people in 2",
      "latitude": 19.07611111,
      "longitude": 72.8775,
      "category": "restaurant",
      "phone": "",
      "website": "https://en.wikipedia.org/wiki/Mumbai",
      "rating": null,
      "features": [
        "wifi",
        "accessibility",
        "air_conditioning"
      ],
      "source": "WikipediaScraper",
      "scraped_at": "2025-05-24 00:04:41"
    },
    {
      "name": "2008 Mumbai attacks",
      "address": "",
      "latitude": 18.92194444,
      "longitude": 72.83333333,
      "category": "restaurant",
      "phone": "",
      "website": "https://en.wikipedia.org/wiki/2008_Mumbai_attacks",
      "rating": null,
      "features": [
        "wifi",
        "air_conditioning"
      ],
      "source": "WikipediaScraper",
      "scraped_at": "2025-05-24 00:05:22"
    }
  ]
}